City_ID,City,Lat,Lng,Max Temp,Humidity,Cloudiness,Wind Speed,Country,Date
0,necochea,-38.5473,-58.7368,12.51,59,71,9.76,AR,1681348763
1,bredasdorp,-34.5322,20.0403,12.84,79,100,2.51,ZA,1681348280
2,atuona,-9.8,-139.0333,27.03,68,100,3.58,PF,1681348284
3,rikitea,-23.1203,-134.9692,25.28,68,48,4.87,PF,1681348764
4,tuktoyaktuk,69.4541,-133.0374,-19.62,85,44,4.76,CA,1681348321
5,umm kaddadah,13.6017,26.6876,22.91,19,70,9.71,SD,1681348764
6,mataura,-46.1927,168.8643,11.38,77,95,3.74,NZ,1681348764
7,port blair,11.6667,92.75,28.25,70,6,1.52,IN,1681348764
8,roald,62.5833,6.1333,9.07,49,58,4.63,NO,1681348764
9,punta arenas,-53.15,-70.9167,4.06,65,0,2.06,CL,1681348109
10,avera,33.194,-82.5271,16.73,41,27,1.46,US,1681348765
11,hualmay,-11.0964,-77.6139,24.11,77,50,4.07,PE,1681348765
12,georgetown,5.4112,100.3354,29.97,70,20,1.03,MY,1681348222
13,albany,42.6001,-73.9662,18.58,54,0,1.72,US,1681348765
14,butaritari,3.0707,172.7902,27.6,73,79,3.23,KI,1681348765
15,dejen,10.1667,38.1333,16.13,61,98,1.15,ET,1681348765
16,souillac,-20.5167,57.5167,23.21,94,20,3.09,MU,1681348765
17,tapes,-30.6733,-51.3958,21.54,85,67,3.37,BR,1681348646
18,kapaa,22.0752,-159.319,27.99,79,75,7.72,US,1681348766
19,hithadhoo,-0.6,73.0833,28.24,69,22,1.5,MV,1681348766
20,bethel,41.3712,-73.414,22.11,40,0,1.54,US,1681348276
21,sinnamary,5.3833,-52.95,25.53,88,100,3.94,GF,1681348766
22,krasnyy chikoy,50.3643,108.7512,-1.39,79,100,5.16,RU,1681348766
23,sola,-13.8833,167.55,28.46,74,91,3.73,VU,1681348767
24,chifeng,42.2683,118.9636,13.2,20,52,5.33,CN,1681348767
25,bluff,-46.6,168.3333,11.56,77,79,9.17,NZ,1681348247
26,port lincoln,-34.7333,135.8667,16.71,61,4,2.18,AU,1681348338
27,kaitangata,-46.2817,169.8464,11.59,90,100,5.08,NZ,1681348767
28,gerede,40.8008,32.1969,0.86,97,100,2.38,TR,1681348767
29,codrington,-38.2667,141.9667,18.8,70,30,3.62,AU,1681348270
30,bima,-8.4667,118.7167,26.91,91,100,1.33,ID,1681348768
31,ushuaia,-54.8,-68.3,4.81,65,100,7.72,AR,1681348543
32,avarua,-21.2078,-159.775,28.03,65,20,3.09,CK,1681348768
33,vaini,-21.2,-175.2,31.09,70,40,7.2,TO,1681348295
34,jamestown,42.097,-79.2353,21.77,45,0,5.14,US,1681347990
35,port hawkesbury,45.6169,-61.3485,2.88,98,100,5.81,CA,1681348370
36,te anau,-45.4167,167.7167,11.98,88,100,2.01,NZ,1681348293
37,talnakh,69.4865,88.3972,-24.93,94,100,2.86,RU,1681348332
38,luderitz,-26.6481,15.1594,14.45,68,57,4.34,NA,1681348361
39,susanville,40.4163,-120.653,8.78,45,75,9.77,US,1681348768
40,marakkanam,12.2,79.95,26.27,69,0,2.64,IN,1681348768
41,araouane,18.9048,-3.5265,26.7,9,100,3.11,ML,1681348769
42,torbay,47.6666,-52.7314,1.27,93,100,0.45,CA,1681348354
43,yellowknife,62.456,-114.3525,-2.66,83,98,3.25,CA,1681348266
44,provideniya,64.3833,-173.3,-13.94,56,0,3.13,RU,1681348279
45,longyearbyen,78.2186,15.6401,-0.09,74,75,5.14,SJ,1681348336
46,telma,52.6983,103.7097,-1.31,47,5,3.82,RU,1681348769
47,erzin,36.9559,36.2,10.07,85,95,1.66,TR,1681348769
48,port elizabeth,-33.918,25.5701,15.73,61,61,2.96,ZA,1681348303
49,sampit,-2.5333,112.95,28.51,70,38,2.08,ID,1681348769
50,mata,40.683,-7.4592,4.12,88,100,1.55,PT,1681348770
51,split,43.5089,16.4392,13.13,76,0,2.06,HR,1681348770
52,leshukonskoye,64.8989,45.7622,-16.13,82,1,3.05,RU,1681348770
53,thompson,55.7435,-97.8558,-0.49,93,100,1.84,CA,1681348241
54,san patricio,28.017,-97.5169,22.4,67,3,4.27,US,1681348303
55,norman wells,65.282,-126.8329,-0.25,91,100,0.58,CA,1681348322
56,east london,-33.0153,27.9116,20.03,60,100,4.06,ZA,1681348298
57,lagos,6.5833,3.75,28.18,88,100,1.82,NG,1681348716
58,amol,36.4696,52.3507,16.4,42,100,1.57,IR,1681348770
59,busselton,-33.65,115.3333,20.45,66,50,10.05,AU,1681348287
60,mahebourg,-20.4081,57.7,24.03,85,8,1.94,MU,1681348307
61,fare,-16.7,-151.0167,27.68,73,4,4.12,PF,1681348771
62,poum,-20.2333,164.0167,26.18,78,7,3.71,NC,1681348366
63,cape town,-33.9258,18.4232,17.43,76,89,1.34,ZA,1681348200
64,bambanglipuro,-7.95,110.2833,26.81,80,99,1.48,ID,1681348404
65,kodiak,57.79,-152.4072,7.73,42,0,5.14,US,1681348266
66,puerto ayora,-0.7393,-90.3518,28.08,85,43,1.34,EC,1681348301
67,hermanus,-34.4187,19.2345,13.22,68,100,2.82,ZA,1681348274
68,upernavik,72.7868,-56.1549,-11.9,91,96,2.21,GL,1681348271
69,namatanai,-3.6667,152.4333,26.3,84,100,4.83,PG,1681348370
70,saskylakh,71.9167,114.0833,-9.71,93,100,6.43,RU,1681348319
71,goderich,43.7501,-81.7165,17.18,51,0,5.66,CA,1681348771
72,la ronge,55.1001,-105.2842,1.1,97,47,1.26,CA,1681348402
73,namibe,-15.1961,12.1522,22.64,68,76,2.57,AO,1681348772
74,mana,5.6592,-53.7767,25.55,87,100,3.17,GF,1681348332
75,bronnoysund,65.4625,12.1997,9.0,61,96,12.35,NO,1681348772
76,kailua,21.4022,-157.7394,28.99,68,40,5.66,US,1681348772
77,casambalangan,18.3765,122.1274,26.08,90,65,4.48,PH,1681348772
78,tambura,5.6,27.4667,20.63,89,100,0.82,SS,1681348772
79,parintins,-2.6283,-56.7358,24.05,94,41,0.85,BR,1681348772
80,preobrazheniye,42.9019,133.9064,7.83,45,0,6.3,RU,1681348772
81,esperance,-33.8667,121.9,20.93,55,0,4.65,AU,1681348332
82,tuatapere,-46.1333,167.6833,13.4,82,91,3.98,NZ,1681348314
83,mandera,3.9366,41.867,26.37,70,73,4.52,KE,1681348773
84,lebu,-37.6167,-73.65,12.72,94,57,2.36,CL,1681348308
85,grindavik,63.8424,-22.4338,2.26,80,0,4.12,IS,1681348299
86,praia da vitoria,38.7333,-27.0667,16.14,88,20,3.63,PT,1681348773
87,sabang,5.8933,95.3214,28.05,75,75,3.59,ID,1681348773
88,castro,-24.7911,-50.0119,15.91,87,3,1.46,BR,1681348295
89,hilo,19.7297,-155.09,25.71,81,75,5.14,US,1681348072
90,nishihara,26.1842,127.7558,24.03,73,75,8.23,JP,1681348304
91,tiksi,71.6872,128.8694,-21.05,99,97,2.16,RU,1681348322
92,port alfred,-33.5906,26.891,18.45,59,93,3.48,ZA,1681348286
93,rocha,-34.4833,-54.3333,14.94,71,100,5.0,UY,1681348773
94,isangel,-19.55,169.2667,29.73,66,56,2.92,VU,1681348351
95,taoudenni,22.6783,-3.9836,25.82,9,100,4.16,ML,1681348313
96,laguna,38.421,-121.4238,19.31,39,0,4.12,US,1681348095
97,hobart,-42.8794,147.3294,17.37,68,75,2.57,AU,1681348193
98,nador,35.174,-2.9287,20.14,52,0,6.69,MA,1681348774
99,mbigou,-1.9005,11.906,19.8,99,100,0.82,GA,1681348635
100,ribeira grande,38.5167,-28.7,16.54,94,92,4.02,PT,1681348282
101,richards bay,-28.783,32.0377,19.04,88,100,3.32,ZA,1681348343
102,le port,-20.9373,55.2919,25.0,93,1,1.31,RE,1681348774
103,tukrah,32.5341,20.5791,14.4,81,0,4.51,LY,1681348405
104,berezovka,53.7214,25.4993,8.83,91,100,3.86,BY,1681348774
105,salinopolis,-0.6136,-47.3561,25.85,88,72,3.2,BR,1681348306
106,cabo san lucas,22.8909,-109.9124,26.61,60,40,6.17,MX,1681348210
107,faya,18.3851,42.4509,14.29,67,34,2.72,SA,1681348376
108,atambua,-9.1061,124.8925,27.17,74,45,1.32,ID,1681348775
109,point fortin,10.1833,-61.6833,24.94,72,12,3.38,TT,1681348775
110,lagoa,39.05,-27.9833,15.12,90,65,5.66,PT,1681348336
111,kaeo,-35.1,173.7833,21.57,66,61,3.23,NZ,1681348775
112,tabas,33.5959,56.9244,25.78,21,82,5.5,IR,1681348304
113,tasiilaq,65.6145,-37.6368,2.09,93,100,2.23,GL,1681348286
114,mumford,5.2618,-0.759,27.11,84,99,3.29,GH,1681348775
115,dunedin,-45.8742,170.5036,12.67,88,100,1.79,NZ,1681348775
116,victoria,22.2855,114.1577,24.98,85,100,1.34,HK,1681348082
117,buraydah,26.326,43.975,16.25,27,100,3.86,SA,1681348775
118,antofagasta,-23.65,-70.4,19.6,84,29,2.86,CL,1681348491
119,mount isa,-20.7333,139.5,30.87,27,82,5.14,AU,1681348775
120,lata,40.1629,-8.3327,12.67,70,100,1.76,PT,1681348315
121,pisco,-13.7,-76.2167,24.03,78,0,8.23,PE,1681348320
122,havelock,34.8791,-76.9013,17.75,61,0,4.12,US,1681348776
123,barrow,71.2906,-156.7887,-19.99,71,0,4.63,US,1681348288
124,yafran,32.0633,12.5286,16.6,19,0,3.83,LY,1681348777
125,anniston,33.6598,-85.8316,17.76,52,0,0.0,US,1681348506
126,atasu,48.6814,71.6433,6.11,40,48,2.36,KZ,1681348497
127,hasaki,35.7333,140.8333,17.94,33,0,3.09,JP,1681348323
128,koutsouras,35.0339,25.9469,12.28,70,0,2.24,GR,1681348777
129,sterling,39.0062,-77.4286,22.35,46,0,1.54,US,1681348778
130,prince rupert,54.3161,-130.3201,4.61,81,100,2.72,CA,1681348237
131,mogadishu,2.0371,45.3438,27.89,76,100,5.25,SO,1681348309
132,waipawa,-41.4122,175.5153,15.63,73,42,3.2,NZ,1681348778
133,eirunepe,-6.6603,-69.8736,24.59,90,100,1.02,BR,1681348778
134,churapcha,62.0025,132.4325,-1.36,74,100,3.95,RU,1681348778
135,itaituba,-4.2761,-55.9836,25.4,84,100,0.71,BR,1681348340
136,roma,43.2128,-75.4557,17.51,63,0,0.0,US,1681348778
137,kalmunai,7.4167,81.8167,26.47,83,11,0.46,LK,1681348295
138,blairmore,49.6,-114.4353,4.77,28,83,1.54,CA,1681348779
139,iqaluit,63.7506,-68.5145,-8.68,95,100,2.65,CA,1681348270
140,chulman,56.8479,124.9104,-5.22,85,100,3.87,RU,1681348779
141,nampula,-15.1165,39.2666,20.97,100,75,3.09,MZ,1681348779
142,dikson,73.5069,80.5464,-21.77,92,24,8.28,RU,1681348308
143,cidreira,-30.1811,-50.2056,23.27,79,11,3.12,BR,1681348285
144,jiuquan,39.7432,98.5174,9.27,38,100,3.38,CN,1681348779
145,kholodnyy,62.7167,147.95,-12.22,68,44,0.97,RU,1681348779
146,beckley,37.7782,-81.1882,14.01,53,0,0.96,US,1681348779
147,saint-philippe,-21.3585,55.7679,23.77,83,34,0.44,RE,1681348297
148,chuy,-33.6971,-53.4616,17.04,73,96,5.74,UY,1681348279
149,marsh harbour,26.5412,-77.0636,22.96,85,100,10.52,BS,1681348296
150,verkhoyansk,67.5447,133.385,-13.9,84,90,0.16,RU,1681348251
151,arraial do cabo,-22.9661,-42.0278,24.16,86,100,8.17,BR,1681348321
152,bara,10.3744,10.7288,25.92,20,6,3.39,NG,1681348323
153,opuwo,-18.0607,13.84,22.67,36,100,2.27,NA,1681348780
154,kabalo,-6.05,26.9167,21.15,97,100,0.28,CD,1681348780
155,ranong,9.9658,98.6348,27.96,81,84,2.27,TH,1681348780
156,saldanha,-33.0117,17.9442,15.59,78,100,1.92,ZA,1681348351
157,bobrov,51.0961,40.0333,8.76,68,100,6.26,RU,1681348780
158,najran,17.4924,44.1277,23.95,51,17,2.28,SA,1681348307
159,tautira,-17.7333,-149.15,26.84,76,15,5.38,PF,1681348780
160,voh,-20.9667,164.7,27.82,70,64,2.65,NC,1681348780
161,kendari,-3.945,122.4989,28.67,77,99,1.75,ID,1681348780
162,hanna,51.6334,-111.9018,3.81,68,79,5.36,CA,1681348780
163,carnarvon,-24.8667,113.6333,22.66,71,10,9.22,AU,1681348250
164,port augusta,-32.5,137.7667,18.49,56,45,4.75,AU,1681348390
165,hamilton,39.1834,-84.5333,20.47,46,0,2.57,US,1681348623
166,carutapera,-1.195,-46.02,24.33,94,85,2.21,BR,1681348353
167,lavrentiya,65.5833,-171.0,-12.82,74,51,2.03,RU,1681348781
168,olinda,-8.0089,-34.8553,26.85,78,40,4.12,BR,1681348781
169,mahbubabad,17.6167,80.0167,27.61,41,0,2.15,IN,1681348781
170,tadine,-21.55,167.8833,27.54,72,23,2.01,NC,1681348781
171,vardo,70.3705,31.1107,-1.01,74,12,6.69,NO,1681348150
172,lompoc,34.6391,-120.4579,14.88,74,40,10.29,US,1681348158
173,hoi an,15.8794,108.335,26.98,83,93,2.27,VN,1681348781
174,tazovskiy,67.4667,78.7,-16.43,94,100,6.94,RU,1681348781
175,hami,42.8,93.45,10.1,24,9,5.98,CN,1681348365
176,lumut,4.2323,100.6298,28.01,83,20,1.54,MY,1681348781
177,jacqueville,5.2052,-4.4146,27.48,84,13,4.68,CI,1681348781
178,ambulu,-8.345,113.6058,25.99,88,100,0.47,ID,1681348400
179,qaanaaq,77.484,-69.3632,-18.02,67,0,1.02,GL,1681348319
180,medicine hat,50.0501,-110.6683,7.07,56,75,3.09,CA,1681348782
181,yeniseysk,58.4497,92.1703,-1.74,91,100,5.55,RU,1681348782
182,saint-augustin,51.226,-58.6502,1.15,96,100,0.86,CA,1681348390
183,brigantine,39.4101,-74.3646,24.11,47,0,3.09,US,1681348782
184,nenjiang,49.1833,125.2167,4.41,48,8,5.7,CN,1681348782
185,ucluelet,48.9329,-125.5528,9.49,78,46,2.24,CA,1681348343
186,tansen,27.8673,83.5467,18.02,23,0,2.42,NP,1681348783
187,pochutla,15.7432,-96.4661,26.57,68,43,1.53,MX,1681348291
188,saint-pierre,-21.3393,55.4781,24.82,73,75,2.57,RE,1681348783
189,hofn,64.2539,-15.2082,3.04,70,91,5.68,IS,1681348387
190,lima,-12.0432,-77.0282,25.5,76,75,6.17,PE,1681348625
191,maniitsoq,65.4167,-52.9,-2.96,81,16,2.87,GL,1681348692
192,juye,35.3947,116.0883,18.06,49,23,4.04,CN,1681348783
193,puerto del rosario,28.5004,-13.8627,18.86,82,0,8.23,ES,1681348783
194,iwanai,42.9744,140.5089,7.59,53,0,6.77,JP,1681348783
195,male,4.1748,73.5089,27.97,89,40,4.12,MV,1681348783
196,sao joao da barra,-21.6403,-41.0511,24.36,84,100,3.96,BR,1681348336
197,sao filipe,14.8961,-24.4956,22.56,75,90,1.74,CV,1681348312
198,kudahuvadhoo,2.6708,72.8944,27.94,75,41,2.77,MV,1681348783
199,kelowna,49.8831,-119.4857,9.69,69,99,2.01,CA,1681348487
200,marrakesh,31.6315,-8.0083,17.04,63,0,1.54,MA,1681348768
201,sacramento,38.4666,-121.3177,19.07,43,40,4.12,US,1681348751
202,kandalaksha,67.162,32.4123,-16.21,98,57,0.82,RU,1681348784
203,russell,32.3502,-85.1999,20.78,50,100,2.47,US,1681348350
204,tecoanapa,16.5167,-98.75,27.73,66,82,2.49,MX,1681348784
205,ilheus,-14.7889,-39.0494,23.76,91,24,1.69,BR,1681348370
206,mata grande,-9.1175,-37.7322,20.53,75,100,3.25,BR,1681348784
207,comodoro rivadavia,-45.8667,-67.5,0.92,51,0,2.06,AR,1681348739
208,gimbi,9.1667,35.8333,18.26,57,100,0.99,ET,1681348784
209,babushkin,51.7122,105.8647,-3.74,80,100,6.03,RU,1681348785
210,merritt island,28.5392,-80.672,23.38,81,100,6.17,US,1681348785
211,kieta,-6.2167,155.6333,28.18,77,76,1.35,PG,1681348785
212,mnogovershinnyy,53.9353,139.9242,-5.14,93,100,8.6,RU,1681348785
213,tabory,58.5198,64.5495,1.51,90,100,3.45,RU,1681348785
214,iracoubo,5.4802,-53.2011,25.77,86,100,3.81,GF,1681348785
215,hiroshima,34.3963,132.4594,17.02,36,0,0.77,JP,1681348785
216,los llanos de aridane,28.6585,-17.9182,16.86,77,20,4.12,ES,1681348785
217,khurda,20.1833,85.6167,26.95,49,0,1.61,IN,1681348785
218,ayia marina,37.75,23.5333,14.21,71,0,3.64,GR,1681348785
219,severnyy,50.677,36.5532,10.02,71,0,5.0,RU,1681348785
220,mar del plata,-38.0023,-57.5575,11.16,90,40,3.6,AR,1681348315
221,rosarito,32.3333,-117.0333,14.26,84,100,3.44,MX,1681348745
222,boende,-0.2167,20.8667,21.4,89,100,0.05,CD,1681348318
223,beirut,33.8889,35.4944,15.41,63,75,7.72,LB,1681348398
224,new norfolk,-42.7826,147.0587,17.18,65,67,0.45,AU,1681348316
225,aquiraz,-3.9014,-38.3911,27.88,75,75,2.58,BR,1681348786
226,troitskiy,57.0603,63.7481,2.26,86,8,2.62,RU,1681348786
227,ketchikan,55.3422,-131.6461,3.26,93,100,5.14,US,1681348405
228,nago,26.5881,127.9761,24.47,73,23,6.3,JP,1681348786
229,belmonte,-15.8631,-38.8828,24.47,88,19,1.79,BR,1681348409
230,port-gentil,-0.7193,8.7815,27.3,79,98,3.28,GA,1681348786
231,sorland,67.667,12.6934,6.92,81,100,8.19,NO,1681348307
232,chabahar,25.2919,60.643,25.2,76,0,1.11,IR,1681348786
233,winnemucca,40.973,-117.7357,12.03,28,0,9.26,US,1681348757
234,norsup,-16.0667,167.3833,29.69,69,78,3.62,VU,1681348786
235,elliot,-31.3333,27.85,11.51,30,100,1.67,ZA,1681348786
236,tabuk,17.4189,121.4443,27.07,81,100,1.92,PH,1681348786
237,jalu,29.0331,21.5482,14.94,38,0,1.72,LY,1681348787
238,nyurba,63.2842,118.3319,-3.14,90,97,3.43,RU,1681348342
239,sitka,57.0531,-135.33,4.94,75,100,6.17,US,1681348327
240,fuerte olimpo,-21.0415,-57.8738,26.48,71,64,2.17,PY,1681348787
241,taltal,-25.4,-70.4833,19.26,79,8,1.17,CL,1681348368
242,wexford,52.3342,-6.4575,6.05,85,43,4.92,IE,1681348490
243,kavieng,-2.5744,150.7967,28.07,73,98,3.55,PG,1681348354
244,kurumkan,54.3,110.3,-0.58,63,100,0.76,RU,1681348787
245,clyde river,70.4692,-68.5914,-20.54,92,60,3.34,CA,1681348300
246,samarai,-10.6167,150.6667,28.66,76,76,3.11,PG,1681348787
247,kiama,-34.6833,150.8667,20.56,88,96,0.89,AU,1681348787
248,aklavik,68.2191,-135.0107,-15.92,70,100,3.5,CA,1681348787
249,coos bay,43.3665,-124.2179,11.29,66,0,4.12,US,1681348519
250,mehamn,71.0357,27.8492,-2.05,79,12,5.28,NO,1681348312
251,san cristobal,7.7669,-72.225,24.1,94,100,1.27,VE,1681348788
252,tam ky,15.5667,108.4833,28.28,74,97,0.93,VN,1681348788
253,qaqortoq,60.7167,-46.0333,-0.44,82,100,2.0,GL,1681348347
254,palmas,-10.2128,-48.3603,25.93,89,20,1.03,BR,1681348788
255,nikolskoye,59.7035,30.7861,5.94,82,98,3.99,RU,1681348311
256,muli,2.9167,73.5667,28.27,75,16,3.85,MV,1681348388
257,severo-kurilsk,50.6789,156.125,0.02,97,100,11.59,RU,1681348788
258,basco,20.4487,121.9702,25.75,85,98,9.83,PH,1681348788
259,ponta do sol,32.6667,-17.1,17.62,73,9,3.33,PT,1681348307
260,tutoia,-2.7619,-42.2744,26.17,82,87,3.14,BR,1681348331
261,rock sound,24.9,-76.2,24.05,84,100,10.32,BS,1681348788
262,shu,43.5983,73.7614,9.69,53,63,1.9,KZ,1681348292
263,padang,-0.9492,100.3543,25.03,79,100,0.84,ID,1681348788
264,gagret,31.6667,76.0667,21.34,31,0,1.93,IN,1681348788
265,yaan,7.3833,8.5667,27.14,70,1,3.43,NG,1681348788
266,bubaque,11.2833,-15.8333,24.89,76,96,5.74,GW,1681348313
267,banting,2.8167,101.5,29.07,85,8,1.5,MY,1681348789
268,antsohihy,-14.8796,47.9875,21.71,98,58,1.0,MG,1681348789
269,polessk,54.862,21.1028,4.03,89,24,2.99,RU,1681348789
270,airai,-8.9266,125.4092,22.25,68,21,0.42,TL,1681348348
271,sibu,2.3,111.8167,28.17,83,40,0.0,MY,1681348789
272,ngama,11.7833,17.1667,26.81,16,10,5.46,TD,1681348789
273,jeremoabo,-10.075,-38.4808,20.78,93,84,2.07,BR,1681348699
274,nkhotakota,-12.9274,34.2961,22.65,89,100,3.5,MW,1681348790
275,aksu,41.1231,80.2644,10.6,33,3,1.61,CN,1681348790
276,narsaq,60.9167,-46.05,1.12,81,100,1.77,GL,1681348315
277,saint-joseph,-21.3667,55.6167,23.21,83,20,0.54,RE,1681348363
278,alice springs,-23.7,133.8833,24.75,36,100,4.63,AU,1681348301
279,ancud,-41.8697,-73.8203,10.61,80,100,2.17,CL,1681348359
280,whangamata,-37.2,175.8667,19.91,69,33,2.02,NZ,1681348790
281,joensuu,62.6012,29.7632,-1.73,68,0,4.02,FI,1681348790
282,evreux,49.0241,1.1508,8.51,81,100,6.17,FR,1681348790
283,vila velha,-20.3297,-40.2925,23.86,93,20,0.0,BR,1681348791
284,klaksvik,62.2266,-6.589,7.51,86,100,9.56,FO,1681348308
285,alora,36.8236,-4.7058,17.69,77,100,3.14,ES,1681348791
286,mokhsogollokh,61.4681,128.9203,-2.09,92,100,1.23,RU,1681348791
287,kodinsk,58.6881,99.1844,-4.71,83,99,4.66,RU,1681348791
288,usevya,-7.1,31.2333,18.21,96,100,1.25,TZ,1681348791
289,dudinka,69.4058,86.1778,-24.57,95,100,4.46,RU,1681348791
290,itoman,26.1247,127.6694,25.01,70,75,8.23,JP,1681348791
291,ostrovnoy,68.0531,39.5131,-10.25,93,100,2.88,RU,1681348330
292,san angelo,31.4638,-100.437,26.12,31,0,4.12,US,1681348791
293,roswell,34.0232,-84.3616,19.93,44,0,2.57,US,1681348791
294,yerbogachen,61.2767,108.0108,-9.57,86,100,2.86,RU,1681348346
295,egvekinot,66.3167,-179.1667,-15.87,74,100,1.4,RU,1681348351
296,yar-sale,66.8333,70.8333,-21.4,93,72,6.77,RU,1681348301
297,liwale,-9.7667,37.9333,20.04,99,84,0.54,TZ,1681348792
298,benguela,-12.5763,13.4055,25.87,85,100,1.27,AO,1681348792
299,geraldton,-28.7667,114.6,18.23,82,40,5.14,AU,1681348305
300,saveh,35.0213,50.3566,18.98,56,100,3.52,IR,1681348792
301,lincoln,40.8,-96.667,26.11,34,0,8.75,US,1681348522
302,bage,-31.3314,-54.1069,17.19,95,28,4.52,BR,1681348792
303,saint anthony,45.0205,-93.218,26.96,47,0,3.09,US,1681348333
304,beni suef,29.0731,31.0979,13.42,61,0,1.14,EG,1681348792
305,abu samrah,35.3029,37.1841,9.62,85,35,8.1,SY,1681348792
306,dakar,14.6937,-17.4441,22.49,85,43,6.58,SN,1681348283
307,salalah,17.0151,54.0924,27.05,78,40,1.54,OM,1681348016
308,kuching,1.55,110.3333,29.56,75,20,2.24,MY,1681348520
309,fairbanks,64.8378,-147.7164,-3.55,74,100,5.14,US,1681348014
310,neuquen,-38.9516,-68.0591,7.94,87,0,0.0,AR,1681348492
311,chicama,-7.8447,-79.1469,26.3,73,86,2.18,PE,1681348793
312,caldas novas,-17.7417,-48.625,20.24,91,59,0.93,BR,1681348793
313,tara,56.8944,74.371,0.51,83,42,3.53,RU,1681348793
314,stornoway,58.2093,-6.3865,5.98,80,100,6.17,GB,1681348635
315,sosnogorsk,63.6023,53.8817,-17.54,79,0,4.9,RU,1681348793
316,katsuura,35.1333,140.3,15.0,50,57,5.26,JP,1681348299
317,pangai,-19.8,-174.35,30.06,74,40,4.63,TO,1681348793
318,sosnovo-ozerskoye,52.5249,111.5418,-1.14,65,100,2.31,RU,1681348392
319,manado,1.487,124.8455,32.43,62,20,1.03,ID,1681348793
320,boueni,-12.9025,45.0761,25.99,70,64,0.75,YT,1681348326
321,udachnyy,66.4167,112.4,-10.86,51,10,3.81,RU,1681348793
322,meshcherino,55.1957,38.36,5.9,66,100,3.46,RU,1681348793
323,guerrero negro,27.9769,-114.0611,15.5,75,100,8.31,MX,1681348276
324,sulphur,30.2366,-93.3774,19.98,64,100,4.63,US,1681348793
325,bambous virieux,-20.3428,57.7575,24.01,85,9,1.95,MU,1681348275
326,mount gambier,-37.8333,140.7667,19.14,72,28,2.35,AU,1681348364
327,bathsheba,13.2167,-59.5167,26.34,69,40,6.69,BB,1681348308
328,camacha,33.0833,-16.3333,15.68,72,20,3.6,PT,1681348298
329,grand gaube,-20.0064,57.6608,24.1,90,57,2.27,MU,1681348794
330,tyret pervaya,53.6703,102.3106,-2.56,49,19,2.66,RU,1681348794
331,rawson,-43.3002,-65.1023,7.92,53,2,4.8,AR,1681348794
332,cochrane,51.1834,-114.4687,4.39,54,95,1.92,CA,1681348521
333,san quintin,30.4833,-115.95,14.84,76,100,6.67,MX,1681348794
334,vostok,46.4856,135.8833,1.17,63,100,6.56,RU,1681348794
335,inndyr,67.0338,14.0276,9.02,80,100,6.49,NO,1681348794
336,arlit,18.7369,7.3853,25.37,11,97,4.27,NE,1681348794
337,kambove,-10.8764,26.5969,15.82,98,96,1.23,CD,1681348795
338,bilma,18.6853,12.9164,22.13,11,1,4.16,NE,1681348795
339,baikunthpur,23.25,82.55,25.0,20,100,1.01,IN,1681348756
340,anaconda,46.1285,-112.9423,1.69,93,100,2.47,US,1681348795
341,sakakah,29.9697,40.2064,12.53,54,0,6.74,SA,1681348152
342,nuuk,64.1835,-51.7216,-0.66,86,0,3.09,GL,1681348364
343,ngunguru,-35.6167,174.5,20.64,72,32,3.48,NZ,1681348795
344,shalya,57.2471,58.7298,1.25,86,4,2.37,RU,1681348795
345,cherskiy,68.75,161.3,-16.99,85,100,1.86,RU,1681348325
346,wangqing,43.3218,129.7634,10.47,26,99,1.45,CN,1681348795
347,cap malheureux,-19.9842,57.6142,24.15,90,47,2.15,MU,1681348795
348,labuhan,-6.8844,112.2051,26.94,81,100,2.57,ID,1681348302
349,sambava,-14.2667,50.1667,23.12,92,15,1.51,MG,1681348795
350,gizo,-8.103,156.8419,28.23,71,91,1.04,SB,1681348399
351,leningradskiy,69.3833,178.4167,-16.65,88,90,2.56,RU,1681348796
352,hobyo,5.3505,48.5268,27.65,75,100,3.76,SO,1681348796
353,misrikh,27.45,80.5167,26.58,24,95,2.99,IN,1681348796
354,beyneu,45.3167,55.2,18.59,41,85,9.01,KZ,1681348796
355,viljoenskroon,-27.2084,26.9485,11.35,62,84,2.6,ZA,1681348796
356,kahului,20.8947,-156.47,28.01,59,40,9.26,US,1681348298
357,lasa,46.6166,10.7002,7.23,98,100,0.84,IT,1681348385
358,cherdyn,60.403,56.4787,-0.76,93,100,3.42,RU,1681348797
359,misratah,32.3754,15.0925,17.24,49,0,4.98,LY,1681348797
360,cabra,37.4725,-4.4421,10.82,80,100,1.53,ES,1681348797
361,broome,42.2506,-75.833,19.28,53,0,3.86,US,1681348378
362,chapleau,47.8405,-83.4034,8.05,76,0,1.54,CA,1681348797
363,malgobek,43.5092,44.5931,13.94,77,100,4.34,RU,1681348797
364,varberg,57.1056,12.2508,7.25,83,100,8.02,SE,1681348797
365,sol-iletsk,51.1631,54.9918,10.03,59,100,4.36,RU,1681348797
366,saint paul,44.9444,-93.0933,27.31,44,0,3.09,US,1681348797
367,charters towers,-20.1,146.2667,31.43,38,13,2.91,AU,1681348752
368,waddan,29.1614,16.139,17.05,16,0,3.35,LY,1681348304
369,kawalu,-7.3817,108.2082,24.32,88,100,0.31,ID,1681348797
370,almaznyy,48.0448,40.045,9.72,75,100,4.56,RU,1681348798
371,igarka,67.4667,86.5833,-27.28,98,100,4.19,RU,1681348798
372,torzhok,57.0436,34.9622,6.31,75,100,2.19,RU,1681348798
373,college,64.8569,-147.8028,-3.56,75,100,5.14,US,1681348382
374,muktsar,30.4833,74.5167,23.84,26,0,1.44,IN,1681348798
375,caravelas,-17.7125,-39.2481,24.2,88,100,1.32,BR,1681348345
376,pacific grove,36.6177,-121.9166,15.3,70,40,7.6,US,1681348019
377,luwuk,-0.9516,122.7875,29.46,72,100,1.18,ID,1681348798
378,baykit,61.67,96.37,-7.51,94,100,3.23,RU,1681348798
379,hambantota,6.1241,81.1185,24.19,100,20,1.03,LK,1681348305
380,ussel,45.55,2.3167,2.37,93,80,2.75,FR,1681348798
381,tokonou,9.65,-9.7833,25.09,30,45,0.03,GN,1681348798
382,polewali,-3.4324,119.3435,29.49,72,63,0.32,ID,1681348799
383,hong gai,20.956,107.0946,24.95,97,100,2.33,VN,1681348799
384,riberalta,-10.9833,-66.1,23.99,92,99,1.06,BO,1681348799
385,anadyr,64.75,177.4833,-18.72,71,0,4.0,RU,1681348799
386,fougamou,-1.2154,10.5838,22.87,97,83,0.72,GA,1681348799
387,helsinki,60.1695,24.9355,7.21,56,0,10.28,FI,1681348384
388,ormara,25.2088,64.6357,25.48,74,36,6.25,PK,1681348799
389,fujin,47.26,132.0322,6.51,34,48,7.01,CN,1681348799
390,maua,-23.6678,-46.4614,22.42,81,0,1.75,BR,1681348799
391,acapulco,16.8634,-99.8901,28.9,65,20,4.12,MX,1681348508
392,cayenne,4.9333,-52.3333,25.02,94,75,1.54,GF,1681348653
393,cukai,4.25,103.4167,27.97,78,86,0.76,MY,1681348801
394,dzerzhinsk,56.2389,43.4631,1.9,87,0,0.0,RU,1681348801
395,manzil kamil,35.6248,10.6673,16.69,100,0,3.09,TN,1681348801
396,obidos,-1.9175,-55.5181,24.6,89,66,1.13,BR,1681348802
397,touros,-5.1989,-35.4608,24.93,90,39,5.34,BR,1681348401
398,albury,-36.0833,146.9167,20.01,100,2,1.79,AU,1681348802
399,stromness,58.965,-3.296,6.6,82,95,6.26,GB,1681348802
400,sabha,27.0377,14.4283,17.04,15,0,3.45,LY,1681348802
401,ambunti,-4.2365,142.8448,28.64,71,100,1.41,PG,1681348804
402,dhidhdhoo,6.8833,73.1,28.48,72,2,2.96,MV,1681348804
403,sharjah,25.3573,55.4033,28.99,41,0,2.06,AE,1681348804
404,san lazaro,18.0387,-88.6622,24.0,82,90,2.9,BZ,1681348805
405,port macquarie,-31.4333,152.9167,22.16,63,56,6.7,AU,1681348206
406,tual,-5.6667,132.75,28.6,75,79,3.54,ID,1681348361
407,teguise,29.0605,-13.564,16.12,82,0,6.69,ES,1681348805
408,bonthe,7.5264,-12.505,26.48,85,55,2.43,SL,1681348805
409,vao,-22.6667,167.4833,25.22,74,100,1.27,NC,1681348282
410,morros,-9.4467,-46.3003,25.65,67,100,0.27,BR,1681348806
411,murud,18.3258,72.965,27.81,70,100,3.11,IN,1681348806
412,goulburn,-34.75,149.7167,16.55,67,57,2.68,AU,1681348504
413,carnduff,49.1667,-101.8009,7.97,60,57,4.0,CA,1681348519
414,karratha,-20.7377,116.8463,30.39,60,100,4.45,AU,1681348806
415,seoul,37.5683,126.9778,11.66,17,72,1.9,KR,1681348532
416,bang saphan,11.2126,99.5117,28.33,72,87,2.93,TH,1681348806
417,diamantino,-14.4086,-56.4461,22.84,91,83,1.21,BR,1681348729
418,marica,-22.9194,-42.8186,25.95,89,100,2.62,BR,1681348807
419,farafangana,-22.8167,47.8333,22.39,92,100,2.05,MG,1681348807
420,huilong,31.8111,121.655,17.74,64,100,7.37,CN,1681348807
421,pogar,52.554,33.2591,9.89,69,100,5.52,RU,1681348807
422,toora-khem,52.4675,96.11,-7.57,72,14,1.78,RU,1681348807
423,zheleznodorozhnyy,55.7503,38.0042,8.38,64,100,2.7,RU,1681348807
424,taiobeiras,-15.8078,-42.2331,20.07,86,93,1.86,BR,1681348549
425,ahuimanu,21.4447,-157.8378,28.84,68,40,9.77,US,1681348314
426,majene,-3.5403,118.9707,29.48,69,27,0.98,ID,1681348808
427,ostersund,63.1792,14.6357,4.25,100,100,12.52,SE,1681348809
428,malanje,-9.5402,16.341,16.69,98,100,0.54,AO,1681348809
429,buritizeiro,-17.3511,-44.9622,22.28,74,23,1.31,BR,1681348809
430,council bluffs,41.2619,-95.8608,27.12,28,20,7.72,US,1681348809
431,havre-saint-pierre,50.2334,-63.5986,2.0,93,40,3.09,CA,1681348809
432,den helder,52.9599,4.7593,7.76,88,75,5.81,NL,1681348597
433,atar,20.5169,-13.0499,24.7,57,19,0.9,MR,1681348809
434,petropavlovsk-kamchatskiy,53.0452,158.6483,0.33,69,75,7.0,RU,1681348374
435,ahipara,-35.1667,173.1667,21.1,69,53,3.15,NZ,1681348354
436,cravo norte,6.3017,-70.2041,29.72,57,99,2.23,CO,1681348367
437,nanortalik,60.1432,-45.2371,0.51,89,100,1.9,GL,1681348810
438,dicabisagan,17.0818,122.4157,27.64,78,100,0.63,PH,1681348810
439,tanete,-3.9443,119.7848,29.72,71,95,1.29,ID,1681348810
440,lebedinyy,58.5167,125.5167,-5.35,86,100,2.58,RU,1681348810
441,vestmannaeyjar,63.4427,-20.2734,6.1,67,23,2.94,IS,1681348321
442,vakhrushev,48.9833,142.9667,1.52,88,37,3.55,RU,1681348810
443,loandjili,-4.7561,11.8578,25.6,86,100,2.49,CG,1681348811
444,vredendal,-31.6683,18.5012,15.98,73,100,2.4,ZA,1681348811
445,ternate,0.8,127.4,29.11,72,17,1.69,ID,1681348272
446,adolfo lopez mateos,28.4667,-107.3,20.52,20,97,8.37,MX,1681348811
447,berlevag,70.8578,29.0864,-2.03,59,10,10.29,NO,1681348811
448,tessalit,20.1986,1.0114,28.19,9,100,2.37,ML,1681348314
449,aktash,50.3,87.7333,-13.84,75,100,2.68,RU,1681348812
450,tungor,53.3808,142.9564,-1.41,96,100,9.43,RU,1681348812
451,mersing,2.4312,103.8405,26.95,94,40,1.03,MY,1681348812
452,mashhad,36.297,59.6062,20.08,32,0,4.12,IR,1681348812
453,talcahuano,-36.7167,-73.1167,12.82,94,100,3.09,CL,1681348320
454,aosta,45.7667,7.4167,1.88,61,73,1.79,IT,1681348812
455,quatre cocos,-20.2078,57.7625,23.94,86,23,1.94,MU,1681348272
456,sembakung,3.8167,117.25,28.16,79,100,0.8,ID,1681348812
457,kandrian,-6.2167,149.55,28.46,80,66,3.74,PG,1681348813
458,katherine,-14.4667,132.2667,30.18,66,75,0.51,AU,1681348813
459,husavik,66.0449,-17.3389,-0.18,86,41,2.82,IS,1681348352
460,liberal,37.0431,-100.921,27.58,29,0,15.43,US,1681348813
461,olafsvik,64.8945,-23.7142,2.82,73,100,3.02,IS,1681348334
462,fortuna,40.5982,-124.1573,10.19,68,6,4.47,US,1681348318
463,dargaville,-35.9333,173.8833,21.24,70,58,3.28,NZ,1681348814
464,bengkulu,-3.8004,102.2655,25.23,82,54,1.59,ID,1681348292
465,pauini,-7.7136,-66.9764,25.77,81,99,1.05,BR,1681348814
466,salinas,36.6777,-121.6555,15.53,64,20,6.69,US,1681348814
467,nemuro,43.3236,145.575,4.91,59,32,8.91,JP,1681348814
468,youghal,51.95,-7.8506,3.64,95,1,4.93,IE,1681348814
469,paamiut,61.994,-49.6678,0.12,72,74,2.27,GL,1681348815
470,saquena,-4.6667,-73.5167,23.93,95,60,0.96,PE,1681348815
471,asau,46.4333,26.4,5.71,90,100,1.59,RO,1681348815
472,keroka,-0.7758,34.9453,10.87,96,88,1.07,KE,1681348815
473,rio brilhante,-21.8019,-54.5464,22.17,90,1,1.18,BR,1681348815
474,nhlangano,-27.1167,31.2,11.94,46,100,2.29,SZ,1681348816
475,porto novo,6.4965,2.6036,27.1,84,40,2.59,BJ,1681348816
476,dingle,10.9995,122.6711,29.61,63,12,2.94,PH,1681348391
477,setermoen,68.861,18.3486,2.84,74,29,1.34,NO,1681348816
478,naze,28.3667,129.4833,19.53,69,0,6.18,JP,1681348070
479,pontes e lacerda,-15.2261,-59.3353,22.49,95,100,1.07,BR,1681348816
480,westport,41.1415,-73.3579,24.16,51,0,1.54,US,1681348377
481,alofi,-19.0595,-169.9187,28.94,65,75,6.69,NU,1681348320
482,arucas,28.1198,-15.5233,20.43,61,21,2.24,ES,1681348817
483,krasnoselkup,65.7,82.4667,-24.65,97,99,4.76,RU,1681348394
484,turan,16.0678,108.2208,26.99,89,75,1.03,VN,1681348799
485,dombarovskiy,50.7587,59.5386,9.31,60,100,4.33,RU,1681348817
486,gasan,13.3237,121.8467,26.36,87,100,4.02,PH,1681348817
487,chokurdakh,70.6333,147.9167,-15.13,90,10,2.51,RU,1681348291
488,portland,45.5234,-122.6762,11.01,67,83,3.13,US,1681348475
489,miri,4.4148,114.0089,30.08,74,40,1.03,MY,1681348817
490,luwingu,-10.2621,29.9271,17.06,97,100,1.27,ZM,1681348817
491,gornopravdinsk,60.05,69.9,-6.84,93,100,4.43,RU,1681348818
492,plettenberg bay,-34.0527,23.3716,14.6,63,91,2.11,ZA,1681348818
493,gandia,38.9667,-0.1833,17.53,76,100,3.13,ES,1681348818
494,guerrero,17.6667,-100.0,22.79,58,83,2.94,MX,1681348819
495,kokoda,-8.8785,147.7407,30.4,68,60,1.39,PG,1681348394
496,kasongo-lunda,-6.4667,16.8167,19.16,99,98,0.9,CD,1681348819
497,balyaga,51.1507,108.921,-2.5,80,100,4.81,RU,1681348819
498,ust-kut,56.7938,105.7672,-3.96,72,75,2.7,RU,1681348819
499,turukhansk,65.8167,87.9833,-28.06,100,100,2.03,RU,1681348375
500,osijek,45.5511,18.6939,9.12,75,0,3.09,HR,1681348819
501,itea,38.4333,22.4167,13.45,75,0,2.67,GR,1681348820
502,lakes entrance,-37.8811,147.981,16.2,80,99,2.73,AU,1681348820
503,bac lieu,9.285,105.7244,29.28,67,40,3.05,VN,1681348348
504,zhezkazgan,47.8043,67.7144,9.05,42,95,2.55,KZ,1681348302
505,scottsbluff,41.8666,-103.6672,27.13,16,0,4.12,US,1681348820
506,narasannapeta,18.4167,84.05,28.01,57,0,1.64,IN,1681348820
507,yulara,-25.2406,130.9889,28.07,35,50,1.6,AU,1681348303
508,khatanga,71.9667,102.5,-17.79,70,0,9.93,RU,1681348329
509,nome,64.5011,-165.4064,-14.96,56,0,2.06,US,1681348087
510,anloga,5.7947,0.8973,27.93,81,22,4.32,GH,1681348821
511,zonguldak,41.25,31.8333,5.77,89,98,2.96,TR,1681348784
512,aldan,58.6031,125.3894,-4.48,87,100,2.21,RU,1681348821
513,banda aceh,5.5577,95.3222,27.65,77,91,3.07,ID,1681348386
514,ascension,30.2169,-90.9001,19.12,76,100,4.0,US,1681348821
515,pevek,69.7008,170.3133,-18.17,85,98,1.44,RU,1681348336
516,walvis bay,-22.9575,14.5053,14.98,80,0,1.09,NA,1681348368
517,vanimo,-2.6741,141.3028,29.27,66,58,1.23,PG,1681348822
518,skjervoy,70.0311,20.9714,4.0,77,10,7.47,NO,1681348822
519,chipinge,-20.1883,32.6236,13.14,95,0,1.18,ZW,1681348822
520,sorong,-0.8833,131.25,28.2,82,99,4.49,ID,1681348822
521,ribeirao das neves,-19.7669,-44.0867,20.88,81,0,1.54,BR,1681348767
522,harper,4.375,-7.7169,26.67,85,1,3.24,LR,1681348369
523,pangoa,-12.1167,-73.0,22.0,92,100,1.15,PE,1681348823
524,sept-iles,50.2001,-66.3821,8.29,60,20,4.63,CA,1681348823
525,jacareacanga,-6.2222,-57.7528,23.91,93,100,0.75,BR,1681348823
526,matagami,49.7502,-77.6328,3.06,70,0,0.0,CA,1681348824
527,carmelo,-33.9892,-58.2856,15.5,74,100,3.89,UY,1681348824
528,matui,-4.8,38.25,19.46,95,100,0.51,TZ,1681348824
529,atbasar,51.8,68.3333,5.29,56,3,2.99,KZ,1681348824
530,bull savanna,17.8868,-77.5902,23.72,83,6,2.09,JM,1681348824
531,cockburn town,21.4612,-71.1419,24.98,78,40,4.12,TC,1681348378
532,arkhangelsk,64.5401,40.5433,-10.94,72,0,4.0,RU,1681348825
533,buala,-8.145,159.5921,26.59,83,90,1.73,SB,1681348280
534,vila franca do campo,37.7167,-25.4333,15.23,88,100,1.62,PT,1681348372
535,la serena,-29.9078,-71.2542,14.73,94,20,1.03,CL,1681348825
536,molepolole,-24.4066,25.4951,16.64,58,0,3.37,BW,1681348825
537,kemijarvi,66.7131,27.4306,-7.04,95,15,2.94,FI,1681348825
538,fereydun kenar,36.6864,52.5225,17.12,88,0,0.0,IR,1681348826
539,cameta,-2.2444,-49.4958,24.84,89,100,1.63,BR,1681348365
540,ulaangom,49.9811,92.0667,-6.44,54,17,1.86,MN,1681348826
541,neiafu,-18.65,-173.9833,29.38,79,40,6.17,TO,1681348826
542,quchan,37.106,58.5095,17.39,27,100,3.83,IR,1681348826
543,wajima,37.4,136.9,15.38,54,0,6.17,JP,1681348826
544,gaya,24.7833,85.0,23.95,43,7,0.0,IN,1681348826
545,margate,51.3813,1.3862,7.17,83,100,1.34,GB,1681348363
546,lerwick,60.1545,-1.1494,6.0,82,15,7.38,GB,1681348826
547,sarany,58.5,58.8833,-0.32,95,78,1.34,RU,1681348826
548,porto velho,-8.7619,-63.9039,25.03,88,20,1.03,BR,1681348609
549,tomatlan,19.9333,-105.25,25.19,47,8,2.69,MX,1681348289
550,bani,18.2833,-70.3333,26.59,83,45,1.84,DO,1681348827
551,ilulissat,69.2167,-51.1,-5.99,100,100,0.0,GL,1681348358
552,apodaca,25.7667,-100.2,25.05,41,0,5.66,MX,1681348827
553,marovoay,-16.1,46.6333,23.29,90,10,0.45,MG,1681348827
554,akureyri,65.6835,-18.0878,-1.77,89,47,1.65,IS,1681348407
555,viedma,-40.8135,-62.9967,9.79,55,41,6.1,AR,1681348827
556,baker city,44.7749,-117.8344,2.84,59,100,8.75,US,1681348588
557,suleja,9.1758,7.1808,27.55,55,1,0.9,NG,1681348828
558,axim,4.8699,-2.2405,26.46,88,14,2.45,GH,1681348346
559,rocky mountain house,52.3668,-114.9188,3.06,65,91,2.06,CA,1681348829
560,tura,25.5198,90.2201,24.96,33,0,1.4,IN,1681348829
561,maralal,1.0968,36.698,14.92,87,100,2.16,KE,1681348829
562,vila,42.0304,-8.1588,2.49,89,100,1.32,PT,1681348829
563,malanville,11.8685,3.3899,30.65,23,44,3.04,BJ,1681348830
564,tiznit,29.5833,-9.5,20.12,28,0,1.11,MA,1681348358
565,fort nelson,58.8053,-122.7002,9.54,40,76,2.8,CA,1681348294
566,ribeirao branco,-24.2208,-48.7656,16.27,98,0,0.54,BR,1681348830
567,dusi,12.7667,79.6833,24.14,65,0,2.4,IN,1681348830
568,denizli,37.8402,29.0698,7.52,88,31,0.97,TR,1681348830
569,toucheng,24.8592,121.8233,28.94,79,30,4.07,TW,1681348830
570,paragominas,-2.9667,-47.4833,22.58,97,36,1.23,BR,1681348830
571,kruisfontein,-34.0033,24.7314,11.05,72,8,2.92,ZA,1681348296
572,peniche,39.3558,-9.3811,13.39,63,100,8.25,PT,1681348831
573,chulym,55.0997,80.9572,2.69,57,100,7.58,RU,1681348831
574,buin,-33.7333,-70.75,19.51,65,100,1.25,CL,1681348831
575,ukiah,39.1502,-123.2078,15.24,47,0,9.26,US,1681348831
576,starokostyantyniv,49.7576,27.2034,6.33,96,100,3.41,UA,1681348831
577,posse,-14.0931,-46.3694,21.45,76,87,1.85,BR,1681348832
578,qidong,31.8128,121.6561,17.74,64,100,7.37,CN,1681348832
579,braesti,47.15,27.1,8.72,86,100,3.26,RO,1681348832
580,teahupoo,-17.8333,-149.2667,27.98,75,18,5.04,PF,1681348380
581,ishigaki,24.3448,124.1572,26.07,78,20,6.17,JP,1681348833
582,beyla,8.6833,-8.6333,22.8,47,2,1.45,GN,1681348833
583,svetlogorsk,52.6333,29.7333,8.55,85,100,4.39,BY,1681348833
584,harindanga,22.0383,88.3214,28.34,36,0,2.27,IN,1681348812
585,champerico,14.3,-91.9167,29.35,63,100,2.75,GT,1681348330
586,isoka,-10.1606,32.6335,17.38,99,100,0.96,ZM,1681348392
587,campbeltown,55.4258,-5.6076,6.03,87,99,13.32,GB,1681348833
588,puerto baquerizo moreno,-0.9,-89.6,26.55,83,40,1.03,EC,1681348347
589,warrington,53.3925,-2.5802,7.93,86,75,12.86,GB,1681348380
590,honiara,-9.4333,159.95,29.48,70,41,2.05,SB,1681348384
591,ambato,-1.2491,-78.6168,13.22,64,100,1.51,EC,1681348750
